[
  {
    "name": "Mumbai",
    "lat": 19.0760,
    "lon": 72.8777,
    "country": "IN"
  },
  {
    "name": "Delhi",
    "lat": 28.7041,
    "lon": 77.1025,
    "country": "IN"
  },
  {
    "name": "Bangalore",
    "lat": 12.9716,
    "lon": 77.5946,
    "country": "IN"
  },
  {
    "name": "Hyderabad",
    "lat": 17.3850,
    "lon": 78.4867,
    "country": "IN"
  },
  {
    "name": "Ahmedabad",
    "lat": 23.0225,
    "lon": 72.5714,
    "country": "IN"
  },
  {
    "name": "Chennai",
    "lat": 13.0827,
    "lon": 80.2707,
    "country": "IN"
  },
  {
    "name": "Kolkata",
    "lat": 22.5726,
    "lon": 88.3639,
    "country": "IN"
  },
  {
    "name": "Surat",
    "lat": 21.1702,
    "lon": 72.8311,
    "country": "IN"
  },
  {
    "name": "Pune",
    "lat": 18.5204,
    "lon": 73.8567,
    "country": "IN"
  },
  {
    "name": "Jaipur",
    "lat": 26.9124,
    "lon": 75.7873,
    "country": "IN"
  },
  {
    "name": "Lucknow",
    "lat": 26.8467,
    "lon": 80.9462,
    "country": "IN"
  },
  {
    "name": "Kanpur",
    "lat": 26.4499,
    "lon": 80.3319,
    "country": "IN"
  },
  {
    "name": "Nagpur",
    "lat": 21.1458,
    "lon": 79.0882,
    "country": "IN"
  },
  {
    "name": "Indore",
    "lat": 22.7196,
    "lon": 75.8577,
    "country": "IN"
  },
  {
    "name": "Thane",
    "lat": 19.2183,
    "lon": 72.9781,
    "country": "IN"
  },
  {
    "name": "Bhopal",
    "lat": 23.2599,
    "lon": 77.4126,
    "country": "IN"
  },
  {
    "name": "Visakhapatnam",
    "lat": 17.6868,
    "lon": 83.2185,
    "country": "IN"
  },
  {
    "name": "Vadodara",
    "lat": 22.3072,
    "lon": 73.1812,
    "country": "IN"
  },
  {
    "name": "Firozabad",
    "lat": 27.1596,
    "lon": 78.3956,
    "country": "IN"
  },
  {
    "name": "Ludhiana",
    "lat": 30.9010,
    "lon": 75.8573,
    "country": "IN"
  },
  {
    "name": "Rajkot",
    "lat": 22.3039,
    "lon": 70.8022,
    "country": "IN"
  },
  {
    "name": "Agra",
    "lat": 27.1767,
    "lon": 78.0081,
    "country": "IN"
  },
  {
    "name": "Nashik",
    "lat": 19.9975,
    "lon": 73.7898,
    "country": "IN"
  },
  {
    "name": "Faridabad",
    "lat": 28.4089,
    "lon": 77.3178,
    "country": "IN"
  },
  {
    "name": "Meerut",
    "lat": 28.9845,
    "lon": 77.7064,
    "country": "IN"
  },
  {
    "name": "Kalyan-Dombivli",
    "lat": 19.2465,
    "lon": 73.1308,
    "country": "IN"
  },
  {
    "name": "Vasai-Virar",
    "lat": 19.3914,
    "lon": 72.8397,
    "country": "IN"
  },
  {
    "name": "Varanasi",
    "lat": 25.3176,
    "lon": 82.9739,
    "country": "IN"
  },
  {
    "name": "Srinagar",
    "lat": 34.0837,
    "lon": 74.7973,
    "country": "IN"
  },
  {
    "name": "Dhanbad",
    "lat": 23.7957,
    "lon": 86.4304,
    "country": "IN"
  },
  {
    "name": "Jodhpur",
    "lat": 26.2389,
    "lon": 73.0243,
    "country": "IN"
  },
  {
    "name": "Amritsar",
    "lat": 31.6340,
    "lon": 74.8723,
    "country": "IN"
  },
  {
    "name": "Raipur",
    "lat": 21.2514,
    "lon": 81.6296,
    "country": "IN"
  },
  {
    "name": "Allahabad",
    "lat": 25.4358,
    "lon": 81.8463,
    "country": "IN"
  },
  {
    "name": "Coimbatore",
    "lat": 11.0168,
    "lon": 76.9558,
    "country": "IN"
  },
  {
    "name": "Jabalpur",
    "lat": 23.1815,
    "lon": 79.9864,
    "country": "IN"
  },
  {
    "name": "Gwalior",
    "lat": 26.2183,
    "lon": 78.1828,
    "country": "IN"
  },
  {
    "name": "Vijayawada",
    "lat": 16.5062,
    "lon": 80.6480,
    "country": "IN"
  },
  {
    "name": "Madurai",
    "lat": 9.9252,
    "lon": 78.1198,
    "country": "IN"
  },
  {
    "name": "Guwahati",
    "lat": 26.1445,
    "lon": 91.7362,
    "country": "IN"
  },
  {
    "name": "Chandigarh",
    "lat": 30.7333,
    "lon": 76.7794,
    "country": "IN"
  },
  {
    "name": "Hubli-Dharwad",
    "lat": 15.3647,
    "lon": 75.1230,
    "country": "IN"
  },
  {
    "name": "Amroha",
    "lat": 28.9026,
    "lon": 78.4600,
    "country": "IN"
  },
  {
    "name": "Moradabad",
    "lat": 28.8386,
    "lon": 78.7776,
    "country": "IN"
  },
  {
    "name": "Gurgaon",
    "lat": 28.4595,
    "lon": 77.0266,
    "country": "IN"
  },
  {
    "name": "Aligarh",
    "lat": 27.8974,
    "lon": 78.0880,
    "country": "IN"
  },
  {
    "name": "Solapur",
    "lat": 17.6599,
    "lon": 75.9064,
    "country": "IN"
  },
  {
    "name": "Ranchi",
    "lat": 23.3441,
    "lon": 85.3096,
    "country": "IN"
  },
  {
    "name": "Jalandhar",
    "lat": 31.3260,
    "lon": 75.5762,
    "country": "IN"
  },
  {
    "name": "Tiruchirappalli",
    "lat": 10.7905,
    "lon": 78.7047,
    "country": "IN"
  },
  {
    "name": "Bhubaneswar",
    "lat": 20.2961,
    "lon": 85.8245,
    "country": "IN"
  },
  {
    "name": "Salem",
    "lat": 11.6643,
    "lon": 78.1460,
    "country": "IN"
  },
  {
    "name": "Mira-Bhayandar",
    "lat": 19.3000,
    "lon": 72.8500,
    "country": "IN"
  },
  {
    "name": "Thiruvananthapuram",
    "lat": 8.5241,
    "lon": 76.9366,
    "country": "IN"
  },
  {
    "name": "Bhiwandi",
    "lat": 19.3000,
    "lon": 73.0667,
    "country": "IN"
  },
  {
    "name": "Saharanpur",
    "lat": 29.9678,
    "lon": 77.5500,
    "country": "IN"
  },
  {
    "name": "Guntur",
    "lat": 16.3067,
    "lon": 80.4365,
    "country": "IN"
  },
  {
    "name": "Amravati",
    "lat": 20.9333,
    "lon": 77.7500,
    "country": "IN"
  },
  {
    "name": "Bikaner",
    "lat": 28.0229,
    "lon": 73.3119,
    "country": "IN"
  },
  {
    "name": "Noida",
    "lat": 28.5355,
    "lon": 77.3910,
    "country": "IN"
  },
  {
    "name": "Jamshedpur",
    "lat": 22.8046,
    "lon": 86.2029,
    "country": "IN"
  },
  {
    "name": "Bhilai",
    "lat": 21.1938,
    "lon": 81.3509,
    "country": "IN"
  },
  {
    "name": "Cuttack",
    "lat": 20.4625,
    "lon": 85.8830,
    "country": "IN"
  },
  {
    "name": "Kochi",
    "lat": 9.9312,
    "lon": 76.2673,
    "country": "IN"
  },
  {
    "name": "Udaipur",
    "lat": 24.5854,
    "lon": 73.7125,
    "country": "IN"
  },
  {
    "name": "Bhavnagar",
    "lat": 21.7645,
    "lon": 72.1519,
    "country": "IN"
  },
  {
    "name": "Dehradun",
    "lat": 30.3165,
    "lon": 78.0322,
    "country": "IN"
  },
  {
    "name": "Asansol",
    "lat": 23.6739,
    "lon": 86.9524,
    "country": "IN"
  },
  {
    "name": "Nanded",
    "lat": 19.1383,
    "lon": 77.3210,
    "country": "IN"
  },
  {
    "name": "Ajmer",
    "lat": 26.4499,
    "lon": 74.6399,
    "country": "IN"
  },
  {
    "name": "Jamnagar",
    "lat": 22.4707,
    "lon": 70.0577,
    "country": "IN"
  },
  {
    "name": "Ujjain",
    "lat": 23.1793,
    "lon": 75.7849,
    "country": "IN"
  },
  {
    "name": "Sangli",
    "lat": 16.8544,
    "lon": 74.5642,
    "country": "IN"
  },
  {
    "name": "Loni",
    "lat": 28.7525,
    "lon": 77.2880,
    "country": "IN"
  },
  {
    "name": "Jhansi",
    "lat": 25.4484,
    "lon": 78.5685,
    "country": "IN"
  },
  {
    "name": "Pondicherry",
    "lat": 11.9139,
    "lon": 79.8145,
    "country": "IN"
  },
  {
    "name": "Nellore",
    "lat": 14.4426,
    "lon": 79.9865,
    "country": "IN"
  },
  {
    "name": "Jammu",
    "lat": 32.7266,
    "lon": 74.8570,
    "country": "IN"
  },
  {
    "name": "Belgaum",
    "lat": 15.8497,
    "lon": 74.4977,
    "country": "IN"
  },
  {
    "name": "Mangalore",
    "lat": 12.9141,
    "lon": 74.8560,
    "country": "IN"
  },
  {
    "name": "Tirunelveli",
    "lat": 8.7139,
    "lon": 77.7567,
    "country": "IN"
  },
  {
    "name": "Malegaon",
    "lat": 20.5537,
    "lon": 74.5288,
    "country": "IN"
  },
  {
    "name": "Gaya",
    "lat": 24.7914,
    "lon": 85.0002,
    "country": "IN"
  },
  {
    "name": "Tiruppur",
    "lat": 11.1085,
    "lon": 77.3411,
    "country": "IN"
  },
  {
    "name": "Davanagere",
    "lat": 14.4644,
    "lon": 75.9218,
    "country": "IN"
  },
  {
    "name": "Kozhikode",
    "lat": 11.2588,
    "lon": 75.7804,
    "country": "IN"
  },
  {
    "name": "Akola",
    "lat": 20.7000,
    "lon": 77.0000,
    "country": "IN"
  },
  {
    "name": "Kurnool",
    "lat": 15.8281,
    "lon": 78.0373,
    "country": "IN"
  },
  {
    "name": "Rajpur Sonarpur",
    "lat": 22.4490,
    "lon": 88.3919,
    "country": "IN"
  },
  {
    "name": "Bokaro Steel City",
    "lat": 23.6693,
    "lon": 86.1511,
    "country": "IN"
  },
  {
    "name": "South Dumdum",
    "lat": 22.6100,
    "lon": 88.4000,
    "country": "IN"
  },
  {
    "name": "Bellary",
    "lat": 15.1394,
    "lon": 76.9173,
    "country": "IN"
  },
  {
    "name": "Patiala",
    "lat": 30.3398,
    "lon": 76.3869,
    "country": "IN"
  },
  {
    "name": "Gopalpur",
    "lat": 19.2644,
    "lon": 84.8620,
    "country": "IN"
  },
  {
    "name": "Agartala",
    "lat": 23.8315,
    "lon": 91.2868,
    "country": "IN"
  },
  {
    "name": "Bhagalpur",
    "lat": 25.2372,
    "lon": 86.9842,
    "country": "IN"
  },
  {
    "name": "Muzaffarnagar",
    "lat": 29.4727,
    "lon": 77.7085,
    "country": "IN"
  },
  {
    "name": "Bhatpara",
    "lat": 22.8664,
    "lon": 88.4011,
    "country": "IN"
  },
  {
    "name": "Panihati",
    "lat": 22.6940,
    "lon": 88.3740,
    "country": "IN"
  },
  {
    "name": "Latur",
    "lat": 18.4088,
    "lon": 76.5604,
    "country": "IN"
  },
  {
    "name": "Dhule",
    "lat": 20.9042,
    "lon": 74.7749,
    "country": "IN"
  },
  {
    "name": "Rohtak",
    "lat": 28.8955,
    "lon": 76.6066,
    "country": "IN"
  },
  {
    "name": "Korba",
    "lat": 22.3595,
    "lon": 82.7501,
    "country": "IN"
  },
  {
    "name": "Bhilwara",
    "lat": 25.3214,
    "lon": 74.5885,
    "country": "IN"
  },
  {
    "name": "Berhampur",
    "lat": 19.3149,
    "lon": 84.7941,
    "country": "IN"
  },
  {
    "name": "Muzaffarpur",
    "lat": 26.1209,
    "lon": 85.3647,
    "country": "IN"
  },
  {
    "name": "Ahmednagar",
    "lat": 19.0952,
    "lon": 74.7496,
    "country": "IN"
  },
  {
    "name": "Mathura",
    "lat": 27.4924,
    "lon": 77.6737,
    "country": "IN"
  },
  {
    "name": "Kollam",
    "lat": 8.8932,
    "lon": 76.6141,
    "country": "IN"
  },
  {
    "name": "Avadi",
    "lat": 13.1143,
    "lon": 80.1098,
    "country": "IN"
  },
  {
    "name": "Kadapa",
    "lat": 14.4673,
    "lon": 78.8242,
    "country": "IN"
  },
  {
    "name": "Kamarhati",
    "lat": 22.6711,
    "lon": 88.3747,
    "country": "IN"
  },
  {
    "name": "Sambalpur",
    "lat": 21.4669,
    "lon": 83.9812,
    "country": "IN"
  },
  {
    "name": "Bilaspur",
    "lat": 22.0797,
    "lon": 82.1391,
    "country": "IN"
  },
  {
    "name": "Shahjahanpur",
    "lat": 27.8815,
    "lon": 79.9120,
    "country": "IN"
  },
  {
    "name": "Satara",
    "lat": 17.6805,
    "lon": 73.9862,
    "country": "IN"
  },
  {
    "name": "Bijapur",
    "lat": 16.8302,
    "lon": 75.7100,
    "country": "IN"
  },
  {
    "name": "Kottayam",
    "lat": 9.5916,
    "lon": 76.5222,
    "country": "IN"
  },
  {
    "name": "Ballia",
    "lat": 25.7584,
    "lon": 84.1487,
    "country": "IN"
  },
  {
    "name": "Bharatpur",
    "lat": 27.2173,
    "lon": 77.4901,
    "country": "IN"
  },
  {
    "name": "Yavatmal",
    "lat": 20.3888,
    "lon": 78.1200,
    "country": "IN"
  },
  {
    "name": "Bhilai Nagar",
    "lat": 21.1938,
    "lon": 81.3509,
    "country": "IN"
  },
  {
    "name": "Fatehpur",
    "lat": 25.9304,
    "lon": 80.8127,
    "country": "IN"
  },
  {
    "name": "Rajahmundry",
    "lat": 17.0005,
    "lon": 81.8040,
    "country": "IN"
  },
  {
    "name": "Durgapur",
    "lat": 23.5204,
    "lon": 87.3119,
    "country": "IN"
  },
  {
    "name": "Calicut",
    "lat": 11.2588,
    "lon": 75.7804,
    "country": "IN"
  },
  {
    "name": "Budaun",
    "lat": 28.0381,
    "lon": 79.1267,
    "country": "IN"
  },
  {
    "name": "Chittoor",
    "lat": 13.2172,
    "lon": 79.1003,
    "country": "IN"
  },
  {
    "name": "Morena",
    "lat": 26.5025,
    "lon": 77.9906,
    "country": "IN"
  },
  {
    "name": "Chandrapur",
    "lat": 19.9700,
    "lon": 79.3000,
    "country": "IN"
  },
  {
    "name": "Jaunpur",
    "lat": 25.7464,
    "lon": 82.6836,
    "country": "IN"
  },
  {
    "name": "Panshet",
    "lat": 18.3833,
    "lon": 73.6167,
    "country": "IN"
  },
  {
    "name": "Baraut",
    "lat": 29.1017,
    "lon": 77.2633,
    "country": "IN"
  },
  {
    "name": "Orai",
    "lat": 25.9908,
    "lon": 79.4534,
    "country": "IN"
  },
  {
    "name": "Bahraich",
    "lat": 27.5743,
    "lon": 81.5959,
    "country": "IN"
  },
  {
    "name": "Modinagar",
    "lat": 28.8315,
    "lon": 77.5770,
    "country": "IN"
  },
  {
    "name": "Gudivada",
    "lat": 16.4300,
    "lon": 80.9900,
    "country": "IN"
  },
  {
    "name": "Shivpuri",
    "lat": 25.4238,
    "lon": 77.6622,
    "country": "IN"
  },
  {
    "name": "Vellore",
    "lat": 12.9165,
    "lon": 79.1325,
    "country": "IN"
  },
  {
    "name": "Margao",
    "lat": 15.2832,
    "lon": 73.9862,
    "country": "IN"
  },
  {
    "name": "Churachandpur",
    "lat": 24.3333,
    "lon": 93.6667,
    "country": "IN"
  },
  {
    "name": "Khammam",
    "lat": 17.2473,
    "lon": 80.1514,
    "country": "IN"
  },
  {
    "name": "Hajipur",
    "lat": 25.6854,
    "lon": 85.2098,
    "country": "IN"
  },
  {
    "name": "Bhiwani",
    "lat": 28.7971,
    "lon": 76.1335,
    "country": "IN"
  },
  {
    "name": "Narasaraopet",
    "lat": 16.2354,
    "lon": 80.0471,
    "country": "IN"
  },
  {
    "name": "Adoni",
    "lat": 15.6322,
    "lon": 77.2728,
    "country": "IN"
  },
  {
    "name": "Mahuva",
    "lat": 21.0833,
    "lon": 71.8000,
    "country": "IN"
  },
  {
    "name": "Buxar",
    "lat": 25.5647,
    "lon": 83.9777,
    "country": "IN"
  },
  {
    "name": "Kapurthala",
    "lat": 31.3801,
    "lon": 75.3817,
    "country": "IN"
  },
  {
    "name": "Gangtok",
    "lat": 27.3314,
    "lon": 88.6138,
    "country": "IN"
  },
  {
    "name": "Hoshiarpur",
    "lat": 31.5143,
    "lon": 75.9115,
    "country": "IN"
  },
  {
    "name": "Raebareli",
    "lat": 26.2345,
    "lon": 81.2409,
    "country": "IN"
  },
  {
    "name": "Unnao",
    "lat": 26.5471,
    "lon": 80.4878,
    "country": "IN"
  },
  {
    "name": "Phusro",
    "lat": 23.7667,
    "lon": 85.9833,
    "country": "IN"
  },
  {
    "name": "Hinganghat",
    "lat": 20.5500,
    "lon": 78.8333,
    "country": "IN"
  },
  {
    "name": "Sasaram",
    "lat": 24.9490,
    "lon": 84.0318,
    "country": "IN"
  },
  {
    "name": "Bahadurgarh",
    "lat": 28.6929,
    "lon": 76.9316,
    "country": "IN"
  },
  {
    "name": "Nawada",
    "lat": 24.8867,
    "lon": 85.5435,
    "country": "IN"
  },
  {
    "name": "Sitapur",
    "lat": 27.5619,
    "lon": 80.6827,
    "country": "IN"
  },
  {
    "name": "Mahesana",
    "lat": 23.6000,
    "lon": 72.4000,
    "country": "IN"
  },
  {
    "name": "New York",
    "lat": 40.7128,
    "lon": -74.0060,
    "country": "US"
  },
  {
    "name": "London",
    "lat": 51.5074,
    "lon": -0.1278,
    "country": "GB"
  },
  {
    "name": "Tokyo",
    "lat": 35.6762,
    "lon": 139.6503,
    "country": "JP"
  },
  {
    "name": "Paris",
    "lat": 48.8566,
    "lon": 2.3522,
    "country": "FR"
  },
  {
    "name": "Sydney",
    "lat": -33.8688,
    "lon": 151.2093,
    "country": "AU"
  },
  {
    "name": "Berlin",
    "lat": 52.5200,
    "lon": 13.4050,
    "country": "DE"
  },
  {
    "name": "Moscow",
    "lat": 55.7558,
    "lon": 37.6173,
    "country": "RU"
  },
  {
    "name": "Rio de Janeiro",
    "lat": -22.9068,
    "lon": -43.1729,
    "country": "BR"
  },
  {
    "name": "Cape Town",
    "lat": -33.9249,
    "lon": 18.4241,
    "country": "ZA"
  },
  {
    "name": "Los Angeles",
    "lat": 34.0522,
    "lon": -118.2437,
    "country": "US"
  },
  {
    "name": "Chicago",
    "lat": 41.8781,
    "lon": -87.6298,
    "country": "US"
  },
  {
    "name": "Toronto",
    "lat": 43.6532,
    "lon": -79.3832,
    "country": "CA"
  },
  {
    "name": "Mexico City",
    "lat": 19.4326,
    "lon": -99.1332,
    "country": "MX"
  },
  {
    "name": "São Paulo",
    "lat": -23.5505,
    "lon": -46.6333,
    "country": "BR"
  },
  {
    "name": "Buenos Aires",
    "lat": -34.6118,
    "lon": -58.3966,
    "country": "AR"
  },
  {
    "name": "Lima",
    "lat": -12.0464,
    "lon": -77.0428,
    "country": "PE"
  },
  {
    "name": "Bogotá",
    "lat": 4.7110,
    "lon": -74.0721,
    "country": "CO"
  },
  {
    "name": "Santiago",
    "lat": -33.4489,
    "lon": -70.6693,
    "country": "CL"
  },
  {
    "name": "Madrid",
    "lat": 40.4168,
    "lon": -3.7038,
    "country": "ES"
  },
  {
    "name": "Rome",
    "lat": 41.9028,
    "lon": 12.4964,
    "country": "IT"
  },
  {
    "name": "Amsterdam",
    "lat": 52.3676,
    "lon": 4.9041,
    "country": "NL"
  },
  {
    "name": "Vienna",
    "lat": 48.2082,
    "lon": 16.3738,
    "country": "AT"
  },
  {
    "name": "Prague",
    "lat": 50.0755,
    "lon": 14.4378,
    "country": "CZ"
  },
  {
    "name": "Warsaw",
    "lat": 52.2297,
    "lon": 21.0122,
    "country": "PL"
  },
  {
    "name": "Budapest",
    "lat": 47.4979,
    "lon": 19.0402,
    "country": "HU"
  },
  {
    "name": "Athens",
    "lat": 37.9838,
    "lon": 23.7275,
    "country": "GR"
  },
  {
    "name": "Istanbul",
    "lat": 41.0082,
    "lon": 28.9784,
    "country": "TR"
  },
  {
    "name": "Cairo",
    "lat": 30.0444,
    "lon": 31.2357,
    "country": "EG"
  },
  {
    "name": "Dubai",
    "lat": 25.2048,
    "lon": 55.2708,
    "country": "AE"
  },
  {
    "name": "Riyadh",
    "lat": 24.7136,
    "lon": 46.6753,
    "country": "SA"
  },
  {
    "name": "Tehran",
    "lat": 35.6892,
    "lon": 51.3890,
    "country": "IR"
  },
  {
    "name": "Singapore",
    "lat": 1.3521,
    "lon": 103.8198,
    "country": "SG"
  },
  {
    "name": "Bangkok",
    "lat": 13.7563,
    "lon": 100.5018,
    "country": "TH"
  },
  {
    "name": "Jakarta",
    "lat": -6.2088,
    "lon": 106.8456,
    "country": "ID"
  },
  {
    "name": "Manila",
    "lat": 14.5995,
    "lon": 120.9842,
    "country": "PH"
  },
  {
    "name": "Seoul",
    "lat": 37.5665,
    "lon": 126.9780,
    "country": "KR"
  },
  {
    "name": "Shanghai",
    "lat": 31.2304,
    "lon": 121.4737,
    "country": "CN"
  },
  {
    "name": "Beijing",
    "lat": 39.9042,
    "lon": 116.4074,
    "country": "CN"
  },
  {
    "name": "Hong Kong",
    "lat": 22.3193,
    "lon": 114.1694,
    "country": "HK"
  },
  {
    "name": "Taipei",
    "lat": 25.0330,
    "lon": 121.5654,
    "country": "TW"
  },
  {
    "name": "Melbourne",
    "lat": -37.8136,
    "lon": 144.9631,
    "country": "AU"
  },
  {
    "name": "Auckland",
    "lat": -36.8485,
    "lon": 174.7633,
    "country": "NZ"
  },
  {
    "name": "Johannesburg",
    "lat": -26.2041,
    "lon": 28.0473,
    "country": "ZA"
  },
  {
    "name": "Lagos",
    "lat": 6.5244,
    "lon": 3.3792,
    "country": "NG"
  },
  {
    "name": "Nairobi",
    "lat": -1.2864,
    "lon": 36.8172,
    "country": "KE"
  },
  {
    "name": "Casablanca",
    "lat": 33.5731,
    "lon": -7.5898,
    "country": "MA"
  },
  {
    "name": "Stockholm",
    "lat": 59.3293,
    "lon": 18.0686,
    "country": "SE"
  },
  {
    "name": "Zurich",
    "lat": 47.3769,
    "lon": 8.5417,
    "country": "CH"
  },
  {
    "name": "Accra",
    "lat": 5.6037,
    "lon": -0.1870,
    "country": "GH"
  },
  {
    "name": "Addis Ababa",
    "lat": 9.1450,
    "lon": 38.7379,
    "country": "ET"
  },
  {
    "name": "Kuala Lumpur",
    "lat": 3.1390,
    "lon": 101.6869,
    "country": "MY"
  },
  {
    "name": "Hanoi",
    "lat": 21.0278,
    "lon": 105.8342,
    "country": "VN"
  },
  {
    "name": "Vancouver",
    "lat": 49.2827,
    "lon": -123.1207,
    "country": "CA"
  },
  {
    "name": "Quito",
    "lat": -0.1807,
    "lon": -78.4678,
    "country": "EC"
  },
  {
    "name": "Brisbane",
    "lat": -27.4698,
    "lon": 153.0251,
    "country": "AU"
  },
  {
    "name": "Kota",
    "lat": 25.2138,
    "lon": 75.8648,
    "country": "IN"
  },
  {
    "name": "Alwar",
    "lat": 27.5520,
    "lon": 76.6346,
    "country": "IN"
  },
  {
    "name": "Sri Ganganagar",
    "lat": 29.9094,
    "lon": 73.8801,
    "country": "IN"
  },
  {
    "name": "Sikar",
    "lat": 27.6094,
    "lon": 75.1399,
    "country": "IN"
  },
  {
    "name": "Pali",
    "lat": 25.7710,
    "lon": 73.3234,
    "country": "IN"
  },
  {
    "name": "Tonk",
    "lat": 26.1664,
    "lon": 75.7895,
    "country": "IN"
  },
  {
    "name": "Bundi",
    "lat": 25.4383,
    "lon": 75.6374,
    "country": "IN"
  },
  {
    "name": "Chittorgarh",
    "lat": 24.8887,
    "lon": 74.6269,
    "country": "IN"
  },
  {
    "name": "Jhalawar",
    "lat": 24.5965,
    "lon": 76.1650,
    "country": "IN"
  },
  {
    "name": "Sawai Madhopur",
    "lat": 26.0229,
    "lon": 76.3441,
    "country": "IN"
  },
  {
    "name": "Nagaur",
    "lat": 27.2020,
    "lon": 73.7339,
    "country": "IN"
  },
  {
    "name": "Baran",
    "lat": 25.1011,
    "lon": 76.5132,
    "country": "IN"
  },
  {
    "name": "Dausa",
    "lat": 26.8907,
    "lon": 76.3375,
    "country": "IN"
  },
  {
    "name": "Rajsamand",
    "lat": 25.0714,
    "lon": 73.8798,
    "country": "IN"
  },
  {
    "name": "Hanumangarh",
    "lat": 29.5818,
    "lon": 74.3294,
    "country": "IN"
  },
  {
    "name": "Karauli",
    "lat": 26.4983,
    "lon": 77.0276,
    "country": "IN"
  },
  {
    "name": "Jhunjhunu",
    "lat": 28.1289,
    "lon": 75.3990,
    "country": "IN"
  },
  {
    "name": "Churu",
    "lat": 28.3041,
    "lon": 74.9672,
    "country": "IN"
  },
  {
    "name": "Sirohi",
    "lat": 24.8884,
    "lon": 72.8479,
    "country": "IN"
  },
  {
    "name": "Dungarpur",
    "lat": 23.8433,
    "lon": 73.7147,
    "country": "IN"
  },
  {
    "name": "Banswara",
    "lat": 23.5468,
    "lon": 74.4425,
    "country": "IN"
  },
  {
    "name": "Pratapgarh",
    "lat": 24.0322,
    "lon": 74.7819,
    "country": "IN"
  },
  {
    "name": "Barmer",
    "lat": 25.7532,
    "lon": 71.4181,
    "country": "IN"
  },
  {
    "name": "Jaisalmer",
    "lat": 26.9157,
    "lon": 70.9083,
    "country": "IN"
  }
]
